City_ID,City,Lat,Lng,Max Temp,Humidity,Cloudiness,Wind Speed,Country,Date
0,bethel,41.3712,-73.414,19.39,74,0,3.09,US,1698456461
1,albany,42.6001,-73.9662,19.7,74,18,2.0,US,1698456377
2,nishinoomote,30.7333,131.0,21.31,52,20,2.06,JP,1698456462
3,himatnagar,23.6,72.95,22.27,36,8,2.18,IN,1698456463
4,adamstown,-25.066,-130.1015,23.12,76,77,2.78,PN,1698456464
5,st. john's,47.5649,-52.7093,6.1,84,100,2.57,CA,1698456465
6,paracuru,-3.41,-39.0306,27.28,82,0,5.0,BR,1698456466
7,port mathurin,-19.6833,63.4167,24.41,76,31,4.27,MU,1698456467
8,grytviken,-54.2811,-36.5092,-1.41,85,17,4.42,GS,1698456468
9,praia,14.9215,-23.5087,27.3,78,20,7.2,CV,1698456468
10,bangassou,4.7413,22.8184,19.42,98,100,0.37,CF,1698456469
11,blackmans bay,-43.0167,147.3167,17.07,50,100,1.34,AU,1698456470
12,talnakh,69.4865,88.3972,-16.55,92,59,1.14,RU,1698456471
13,yellowknife,62.456,-114.3525,-4.69,86,100,0.0,CA,1698456472
14,bandar-e genaveh,29.5791,50.517,28.01,47,0,3.06,IR,1698456473
15,noordwijkerhout,52.25,4.4833,11.11,94,100,4.18,NL,1698456474
16,bilibino,68.0546,166.4372,-15.85,93,61,1.2,RU,1698456474
17,salsomaggiore terme,44.8148,9.9796,17.55,79,0,2.87,IT,1698456475
18,waitangi,-43.9535,-176.5597,10.46,73,48,3.13,NZ,1698456476
19,ribeira grande,38.5167,-28.7,19.14,75,99,8.07,PT,1698456477
20,puerto ayora,-0.7393,-90.3518,24.19,92,22,4.02,EC,1698456478
21,saipan,15.1355,145.701,31.39,74,40,5.14,MP,1698456479
22,dryden,49.7833,-92.7503,-2.84,93,100,2.57,CA,1698456479
23,allonnes,47.9674,0.1581,11.02,93,75,3.6,FR,1698456481
24,aasiaat,68.7098,-52.8699,-6.63,95,100,3.36,GL,1698456482
25,fale old settlement,-9.3852,-171.2468,28.59,74,50,2.58,TK,1698456483
26,puerto natales,-51.7236,-72.4875,2.36,74,84,6.21,CL,1698456484
27,paredon,16.0333,-93.8667,28.14,76,99,1.07,MX,1698456484
28,port-aux-francais,-49.35,70.2167,3.3,84,26,8.5,TF,1698456485
29,edinburgh of the seven seas,-37.0676,-12.3116,14.41,95,100,17.51,SH,1698456486
30,invercargill,-46.4,168.35,10.57,84,55,6.26,NZ,1698456487
31,cidreira,-30.1811,-50.2056,19.49,91,100,10.78,BR,1698456488
32,zarinsk,53.7074,84.9493,-2.97,64,98,4.44,RU,1698456489
33,iskateley,67.6803,53.1512,-14.43,96,6,2.24,RU,1698456490
34,fort bragg,35.139,-79.006,20.45,88,0,0.0,US,1698456206
35,port elizabeth,-33.918,25.5701,14.16,96,75,3.6,ZA,1698456492
36,tongliao,43.6125,122.2653,9.61,20,13,3.03,CN,1698456493
37,bredasdorp,-34.5322,20.0403,12.98,68,100,3.38,ZA,1698456494
38,iqaluit,63.7506,-68.5145,-5.15,67,20,2.06,CA,1698456353
39,inhambane,-23.865,35.3833,21.51,78,0,3.9,MZ,1698456496
40,dongcun,36.7767,121.1597,18.51,31,0,1.88,CN,1698456496
41,shorapur,16.5167,76.75,19.0,53,0,1.87,IN,1698456497
42,rawson,-43.3002,-65.1023,16.91,31,47,13.43,AR,1698456498
43,college,64.8569,-147.8028,-1.97,83,75,0.0,US,1698456499
44,vorgashor,67.5833,63.95,-9.16,97,100,2.2,RU,1698456500
45,hammerfest,70.6634,23.6821,-0.75,80,40,2.57,NO,1698456501
46,belmonte,-15.8631,-38.8828,25.75,81,100,4.11,BR,1698456502
47,afaahiti,-17.75,-149.2833,24.93,89,100,6.6,PF,1698456503
48,olonkinbyen,70.9221,-8.7187,-0.91,67,21,1.71,SJ,1698456504
49,ebon,4.582,168.6964,26.67,84,100,6.88,MH,1698456505
50,deschutes river woods,43.9915,-121.3584,2.33,70,100,3.6,US,1698456505
51,santo antonio,-6.3106,-35.4789,24.94,82,100,4.08,BR,1698456452
52,necochea,-38.5473,-58.7368,15.67,41,71,4.18,AR,1698456294
53,sitka,57.0531,-135.33,9.94,62,20,4.12,US,1698456508
54,demidov,55.2706,31.515,2.1,99,100,2.83,RU,1698456509
55,urangan,-25.3,152.9,21.84,57,35,10.23,AU,1698456510
56,dudinka,69.4058,86.1778,-12.96,99,86,1.34,RU,1698456453
57,isafjordur,66.0755,-23.124,2.93,81,83,1.92,IS,1698456512
58,lebu,-37.6167,-73.65,11.92,87,100,9.57,CL,1698456513
59,selfoss,63.9331,-20.9971,2.48,76,100,3.22,IS,1698456514
60,bani walid,31.7566,13.9942,21.15,33,0,2.43,LY,1698456516
61,sanming,26.2486,117.6186,18.79,88,77,1.07,CN,1698456516
62,arac,41.2422,33.3277,15.36,51,94,1.3,TR,1698456308
63,gadzhiyevo,69.2551,33.3362,-3.4,90,100,4.09,RU,1698456518
64,papatowai,-46.5619,169.4708,11.41,62,80,6.55,NZ,1698456519
65,utrik,11.2278,169.8474,28.24,75,13,4.57,MH,1698456520
66,kailua-kona,19.6406,-155.9956,29.17,80,40,4.63,US,1698456521
67,laojunmiao,39.8333,97.7333,7.1,29,16,0.66,CN,1698456521
68,changli,39.7042,119.1506,15.71,58,4,3.84,CN,1698456522
69,castillos,-34.1667,-53.8333,14.22,92,84,3.68,UY,1698456523
70,luderitz,-26.6481,15.1594,16.72,74,0,9.37,NA,1698456421
71,cururupu,-1.8283,-44.8683,24.46,81,5,1.51,BR,1698456525
72,canutama,-6.5339,-64.3831,24.22,82,100,0.74,BR,1698456526
73,klyuchi,52.2667,79.1667,-2.64,58,11,1.58,RU,1698456526
74,whitehorse,60.7161,-135.0538,-4.43,89,20,3.6,CA,1698456527
75,thinadhoo,0.5333,72.9333,27.39,78,44,7.69,MV,1698456528
76,hithadhoo,-0.6,73.0833,27.27,78,34,6.75,MV,1698456334
77,nova sintra,14.8667,-24.7167,24.57,77,14,7.63,CV,1698456530
78,tazovsky,67.4667,78.7,-13.63,91,100,7.06,RU,1698456531
79,aktau,43.65,51.2,12.32,63,28,3.47,KZ,1698456532
80,osh,40.5151,72.8083,10.36,82,20,1.0,KG,1698456532
81,port alfred,-33.5906,26.891,15.1,97,100,2.68,ZA,1698456533
82,eynesil,41.0645,39.1438,21.52,55,68,5.4,TR,1698456535
83,waldems,50.25,8.3333,10.51,91,100,3.39,DE,1698456536
84,galliano,29.4422,-90.2992,25.0,78,0,2.57,US,1698456537
85,kiama,-34.6833,150.8667,21.88,50,55,3.92,AU,1698456537
86,masterton,-40.9597,175.6575,12.71,36,7,2.13,NZ,1698456538
87,blagodatnoye,45.3997,42.5867,16.51,65,100,3.03,RU,1698456539
88,vuktyl,63.8567,57.3094,-10.5,95,17,0.89,RU,1698456540
89,yuzhno-kurilsk,44.0306,145.8556,11.32,87,100,3.56,RU,1698456322
90,atafu village,-8.5421,-172.5159,28.81,75,100,2.69,TK,1698456542
91,arar,30.9753,41.0381,19.01,42,20,3.09,SA,1698456542
92,powell river,49.8496,-124.5361,7.15,87,20,0.0,CA,1698456543
93,n'dalatando,-9.2978,14.9116,20.24,93,100,0.61,AO,1698456544
94,ilulissat,69.2167,-51.1,-3.99,74,100,3.6,GL,1698456545
95,margaret river,-33.95,115.0667,14.43,51,49,0.88,AU,1698456546
96,cide,41.8921,33.0044,19.98,57,66,3.96,TR,1698456547
97,port lincoln,-34.7333,135.8667,19.34,55,0,6.55,AU,1698456548
98,enewetak,11.3474,162.3373,28.72,67,33,5.41,MH,1698456549
99,karratha,-20.7377,116.8463,33.31,31,47,0.77,AU,1698456549
100,howrah,22.5892,88.3103,24.0,88,20,1.54,IN,1698456550
101,arica,-18.475,-70.3042,19.75,63,0,1.54,CL,1698456339
102,puerto baquerizo moreno,-0.9,-89.6,23.28,79,100,6.17,EC,1698456552
103,ushuaia,-54.8,-68.3,3.81,70,75,10.8,AR,1698456553
104,emerald,-23.5333,148.1667,26.3,27,0,5.74,AU,1698456554
105,nelson bay,-32.7167,152.15,20.61,53,33,1.34,AU,1698456555
106,uturoa,-16.7333,-151.4333,25.12,78,100,5.68,PF,1698456556
107,arkhangel'sk,64.5401,40.5433,-1.04,83,100,2.97,RU,1698456311
108,dili,-8.5586,125.5736,29.34,62,83,3.91,TL,1698456557
109,chonchi,-42.6128,-73.8092,8.56,85,97,3.75,CL,1698456558
110,stanley,54.868,-1.6985,9.04,95,75,2.57,GB,1698456559
111,constantia,44.1833,28.65,19.38,50,100,9.03,RO,1698456358
112,santiago de cao,-7.9589,-79.2392,19.07,88,100,4.63,PE,1698456561
113,kristiansund,63.1115,7.732,0.36,74,4,2.57,NO,1698456562
114,galle,6.0367,80.217,24.9,86,95,2.04,LK,1698456563
115,avarua,-21.2078,-159.775,24.03,57,40,7.72,CK,1698456563
116,hamilton,39.1834,-84.5333,20.43,89,75,4.63,US,1698456564
117,west island,-12.1568,96.8225,26.99,74,40,9.26,CC,1698456565
118,sandnessjoen,66.0217,12.6316,1.06,86,75,1.03,NO,1698456566
119,udachny,66.4167,112.4,-9.22,82,10,8.1,RU,1698456529
120,san julian,21.0167,-102.1667,17.56,72,53,2.13,MX,1698456569
121,kenai,60.5544,-151.2583,6.05,65,0,2.06,US,1698456570
122,xichang,27.8964,102.2634,14.49,80,77,0.47,CN,1698456571
123,nazca,-14.8333,-74.95,18.73,81,100,2.79,PE,1698456572
124,haderslev,55.2538,9.4898,7.94,93,100,4.63,DK,1698456573
125,punta arenas,-53.15,-70.9167,2.06,69,20,7.72,CL,1698456051
126,lompoc,34.6391,-120.4579,17.19,79,0,11.18,US,1698456574
127,saint-francois,46.4154,3.9054,11.47,77,100,3.6,FR,1698456575
128,coahuayana de hidalgo,18.7,-103.6583,25.9,87,100,1.11,MX,1698456576
129,northam,51.0333,-4.2167,13.14,96,100,6.26,GB,1698456577
130,chupaca,-12.0667,-75.2833,14.94,66,99,1.91,PE,1698456578
131,vorkuta,67.5,64.0,-9.28,98,100,1.69,RU,1698456579
132,thabazimbi,-24.5917,27.4116,21.16,33,2,0.91,ZA,1698456580
133,berezovyy,51.6667,135.7,2.36,45,0,0.83,RU,1698456581
134,la'ie,21.6477,-157.9253,30.98,67,9,1.79,US,1698456581
135,malmberget,67.1753,20.6549,-6.69,100,100,0.0,SE,1698456582
136,trujillo,-8.116,-79.03,18.98,88,100,4.63,PE,1698456535
137,flying fish cove,-10.4217,105.6791,27.82,74,40,5.66,CX,1698456584
138,rosarito,32.3333,-117.0333,18.56,75,0,2.69,MX,1698456585
139,ghat,24.9647,10.1728,25.87,21,100,2.04,LY,1698456586
140,mirny,62.5353,113.9611,-0.98,63,100,7.15,RU,1698456587
141,lorengau,-2.0226,147.2712,29.62,66,36,4.16,PG,1698456588
142,mogocha,53.7333,119.7667,0.88,57,10,0.92,RU,1698456588
143,alaghsas,17.0187,8.0168,25.11,16,97,4.22,NE,1698456589
144,taber,49.8167,-112.1518,-9.0,82,19,5.14,CA,1698456590
145,gulf breeze,30.3571,-87.1639,23.32,94,0,2.06,US,1698456591
146,happy valley-goose bay,53.3168,-60.3315,-0.83,69,100,1.54,CA,1698456592
147,zouerate,22.7187,-12.4521,24.03,32,0,3.32,MR,1698456593
148,kabalo,-6.05,26.9167,20.39,90,100,0.94,CD,1698456594
149,hawaiian paradise park,19.5933,-154.9731,28.35,72,20,3.6,US,1698456594
150,belyye berega,53.2085,34.6641,2.64,100,100,3.5,RU,1698456364
151,primero de mayo,-32.2552,-58.4228,18.64,84,47,2.83,AR,1698456596
152,kapa'a,22.0752,-159.319,28.99,61,40,3.6,US,1698456597
153,alta,69.9689,23.2717,-6.41,83,20,2.06,NO,1698456598
154,axim,4.8699,-2.2405,25.11,90,12,2.08,GH,1698456599
155,san rafael,-34.6177,-68.3301,20.79,15,40,2.06,AR,1698456600
156,vetluzhskiy,58.3902,45.4654,-2.76,73,100,1.34,RU,1698456601
157,hermanus,-34.4187,19.2345,14.15,69,100,4.42,ZA,1698456602
158,pitimbu,-7.4706,-34.8086,26.33,70,97,6.81,BR,1698456603
159,vadso,70.0744,29.7487,-2.51,86,100,1.03,NO,1698456605
160,minas de marcona,-15.2119,-75.1103,13.79,92,100,4.98,PE,1698456607
161,bubaque,11.2833,-15.8333,27.41,80,1,5.14,GW,1698456608
162,enriquillo,17.9,-71.2333,26.22,82,46,2.88,DO,1698456609
163,polyarnyy,69.1989,33.4478,-3.0,90,100,4.2,RU,1698456610
164,melito di porto salvo,37.9222,15.7714,23.28,68,20,5.66,IT,1698456611
165,east london,-33.0153,27.9116,17.42,94,100,4.58,ZA,1698456378
166,chatellerault,46.8,0.5333,11.42,1,87,7.61,FR,1698456476
167,sao vicente,-23.9631,-46.3919,24.1,26,100,1.75,BR,1698456614
168,kolding,55.4904,9.4722,7.2,81,99,5.14,DK,1698456362
169,qamdo,31.1667,97.2333,0.23,54,100,1.0,CN,1698456616
170,qaqortoq,60.7167,-46.0333,0.48,59,100,0.6,GL,1698456617
171,bandar-e lengeh,26.5579,54.8807,27.57,56,0,0.49,IR,1698456618
172,daru,-9.0763,143.2092,25.99,85,100,3.66,PG,1698456618
173,suva,-18.1416,178.4415,27.71,65,75,5.66,FJ,1698456619
174,vakarai,55.6035,23.8213,0.29,93,100,4.3,LT,1698456620
175,kerikeri,-35.2268,173.9474,17.17,60,100,0.45,NZ,1698456621
176,bemidji,47.4736,-94.8803,-2.27,96,100,6.17,US,1698456622
177,kenora,49.8167,-94.4337,-1.46,86,75,2.06,CA,1698456623
178,shenjiamen,29.9576,122.298,20.35,52,100,2.93,CN,1698456624
179,shar,49.5886,81.0453,-1.32,52,100,2.01,KZ,1698456625
180,wingham,43.8879,-81.3114,19.27,87,100,6.85,CA,1698456626
181,picos,-7.0769,-41.4669,28.69,35,62,1.65,BR,1698456625
182,ust'-ilimsk,58.0006,102.6619,-0.87,50,6,4.92,RU,1698456628
183,nyurba,63.2842,118.3319,-0.91,85,100,4.06,RU,1698456629
184,ryotsu-minato,38.0833,138.4333,15.4,83,100,2.33,JP,1698456630
185,hovd,48.0056,91.6419,2.65,36,71,0.74,MN,1698456631
186,yaren,-0.5472,166.916,27.95,71,28,1.51,NR,1698456632
187,sault ste. marie,46.5168,-84.3333,8.16,87,100,6.17,CA,1698456633
188,mejit,10.2753,170.8646,28.23,75,37,4.58,MH,1698456634
189,thompson,55.7435,-97.8558,-2.91,93,100,2.06,CA,1698456634
190,zhengzhou,34.7578,113.6486,18.27,35,11,1.04,CN,1698456635
191,vernon,50.2581,-119.2691,2.2,44,4,0.51,CA,1698456636
192,vilyuysk,63.7553,121.6247,0.56,96,100,3.13,RU,1698456637
193,kavieng,-2.5744,150.7967,28.7,73,98,4.69,PG,1698456639
194,ukhta,63.5671,53.6835,-5.8,97,84,0.89,RU,1698456639
195,maslyanino,54.3436,84.2111,-3.77,68,49,4.26,RU,1698456640
196,bridgewater,44.3835,-64.5155,13.39,98,85,3.09,CA,1698456641
197,tsiombe,-25.3,45.4833,20.65,83,10,5.14,MG,1698456642
198,badger,64.8,-147.5333,-2.02,85,20,0.0,US,1698456643
199,harper,4.375,-7.7169,25.24,89,2,2.76,LR,1698456644
200,ancud,-41.8697,-73.8203,10.51,86,100,10.15,CL,1698456644
201,hasaki,35.7333,140.8333,19.22,54,35,3.26,JP,1698456645
202,vikulovo,56.8167,70.6107,-9.67,96,56,2.53,RU,1698456646
203,lionel town,17.8101,-77.2406,25.94,80,0,3.25,JM,1698456647
204,hami,42.8,93.45,12.92,35,100,3.87,CN,1698456648
205,bandarbeyla,9.4942,50.8122,26.2,81,91,5.45,SO,1698456649
206,china,25.7,-99.2333,29.1,56,37,10.28,MX,1698456565
207,usinsk,65.9939,57.5281,-16.07,98,13,0.89,RU,1698456545
208,namibe,-15.1961,12.1522,20.19,86,87,2.0,AO,1698456651
209,sola,-13.8833,167.55,26.7,77,40,2.38,VU,1698456652
210,san antonio de pale,-1.4014,5.6325,25.63,84,60,3.87,GQ,1698456653
211,arvin,35.2091,-118.8284,19.36,80,1,1.53,US,1698456654
212,bom jesus da lapa,-13.255,-43.4181,28.67,46,94,2.77,BR,1698456654
213,touros,-5.1989,-35.4608,25.88,79,20,7.2,BR,1698456655
214,pierre,44.3683,-100.351,-3.41,78,75,2.24,US,1698456656
215,raybag,16.4833,74.7833,20.36,53,3,2.07,IN,1698456657
216,saint-pierre,-21.3393,55.4781,23.82,64,0,2.57,RE,1698456658
217,nizao,18.25,-70.2,26.93,77,100,6.24,DO,1698456659
218,alakurtti,66.9672,30.3491,-5.1,86,96,0.75,RU,1698456660
219,kroya,-7.6331,109.2461,29.17,62,98,2.19,ID,1698456661
220,ola,59.5833,151.2833,1.75,66,100,3.06,RU,1698456662
221,evron,48.1564,-0.3997,10.9,89,100,6.84,FR,1698456662
222,lihue,21.9789,-159.3672,28.58,59,40,3.6,US,1698456663
223,sumusta as sultani,28.9167,30.85,22.5,66,2,4.01,EG,1698456664
224,sao joao do piaui,-8.3581,-42.2467,28.12,36,12,1.2,BR,1698456665
225,toliara,-23.35,43.6667,21.92,65,0,3.75,MG,1698456666
226,wailua homesteads,22.0669,-159.378,28.24,60,40,3.6,US,1698456667
227,uliastay,47.7417,96.8444,0.99,83,100,2.22,MN,1698456667
228,keflavik,64.0049,-22.5624,5.95,81,0,3.6,IS,1698456423
229,tshabong,-26.05,22.45,19.97,16,100,5.34,BW,1698456669
230,upington,-28.4478,21.2561,16.21,63,0,3.6,ZA,1698456670
231,vilyuchinsk,52.9306,158.4028,6.15,72,99,0.4,RU,1698456577
232,tateyama,34.9833,139.8667,19.09,63,4,2.42,JP,1698456672
233,crane,31.3974,-102.3501,18.64,77,90,8.47,US,1698456672
234,anadyr,64.75,177.4833,0.28,100,100,8.0,RU,1698456637
235,fortuna,40.5982,-124.1573,11.48,84,0,3.6,US,1698456674
236,zeya,53.75,127.2667,-3.06,64,22,1.12,RU,1698456675
237,mont-tremblant,46.1949,-74.6264,16.44,100,100,1.03,CA,1698456676
238,broome,42.2506,-75.833,20.21,80,0,4.63,US,1698456676
239,al hudaydah,14.7978,42.9545,29.06,73,97,5.86,YE,1698456677
240,arawa,-6.2132,155.5367,30.42,67,100,1.59,PG,1698456678
241,xining,36.6167,101.7667,7.99,39,0,0.95,CN,1698456679
242,mehtar lam,34.6714,70.2094,18.94,35,0,1.71,AF,1698456680
243,lata,40.1629,-8.3327,15.04,97,40,2.3,PT,1698456681
244,ordynskoye,54.3656,81.8994,-4.24,66,7,4.09,RU,1698456681
245,georgetown,5.4112,100.3354,28.86,92,20,3.6,MY,1698456622
246,walvis bay,-22.9575,14.5053,12.53,100,0,4.12,NA,1698456684
247,gusinoozyorsk,51.2833,106.5,3.27,72,78,10.58,RU,1698456685
248,abu jibeha,11.4562,31.2285,23.5,75,100,2.13,SD,1698456685
249,turpan,42.9333,89.1667,17.09,33,58,0.93,CN,1698456686
250,brazzaville,-4.2658,15.2832,23.25,86,90,0.34,CG,1698456652
251,i-n-salah,27.1935,2.4607,26.09,19,2,2.48,DZ,1698456690
252,sungai penuh,-2.0833,101.3833,24.73,55,81,1.05,ID,1698456690
253,launceston,-41.45,147.1667,15.8,58,100,9.77,AU,1698456691
254,celestun,20.8667,-90.4,26.91,69,48,7.6,MX,1698456692
255,petropavlovsk-kamchatsky,53.0452,158.6483,5.33,59,75,2.0,RU,1698456570
256,freetown,8.484,-13.2299,26.3,82,91,1.92,SL,1698456694
257,ouesso,1.6136,16.0517,19.86,97,100,0.71,CG,1698456695
258,kodiak,57.79,-152.4072,7.73,81,100,5.14,US,1698456696
259,ust-nera,64.5667,143.2,-11.79,94,92,1.19,RU,1698456696
260,andergrove,-21.0833,149.1833,28.14,58,30,8.53,AU,1698456697
261,kosong,38.3788,128.4676,16.27,68,50,1.89,KR,1698456698
262,longyearbyen,78.2186,15.6401,-3.09,80,75,2.06,SJ,1698456699
263,bhimunipatnam,17.8833,83.4333,23.73,77,69,2.47,IN,1698456700
264,tura,25.5198,90.2201,22.49,72,0,1.12,IN,1698456701
265,asadabad,34.7824,48.1185,5.97,49,100,0.6,IR,1698456701
266,bodo,67.28,14.405,1.02,98,100,4.12,NO,1698456702
267,tefe,-3.3542,-64.7114,26.15,81,81,1.12,BR,1698456704
268,diego martin,10.7005,-61.5342,25.78,87,62,2.83,TT,1698456705
269,richards bay,-28.783,32.0377,19.71,82,98,3.56,ZA,1698456706
270,bathsheba,13.2167,-59.5167,28.34,89,40,6.69,BB,1698456707
271,chone,-0.6833,-80.1,24.37,83,94,3.06,EC,1698456707
272,zemio,5.0314,25.1361,19.53,95,100,0.45,CF,1698456708
273,mount isa,-20.7333,139.5,31.87,11,80,5.14,AU,1698456709
274,manado,1.487,124.8455,30.43,48,20,2.06,ID,1698456710
275,howard springs,-12.497,131.047,34.34,55,19,2.7,AU,1698456711
276,puerto deseado,-47.7503,-65.8938,11.15,29,79,13.44,AR,1698456712
277,whakatane,-37.9585,176.9854,19.93,57,100,3.58,NZ,1698456713
278,wichita falls,33.9137,-98.4934,16.08,63,75,8.23,US,1698456714
279,choyr,46.3611,108.3611,8.66,24,86,1.43,MN,1698456714
280,tan-tan,28.438,-11.1032,20.72,89,100,4.42,MA,1698456715
281,sisimiut,66.9395,-53.6735,-3.64,81,100,3.5,GL,1698456716
282,ilha de mocambique,-15.0342,40.7358,25.47,79,0,1.93,MZ,1698456717
283,dazhou,31.2159,107.5009,17.31,77,65,0.21,CN,1698456718
284,bohain-en-vermandois,49.9873,3.453,10.48,89,100,7.4,FR,1698456719
285,lapeer,43.0514,-83.3188,21.27,68,100,5.66,US,1698456720
286,pasuquin,18.3328,120.6177,29.97,66,20,1.54,PH,1698456720
287,kargasok,59.0556,80.8572,-8.35,92,82,5.36,RU,1698456721
288,monticello,45.3055,-93.7941,1.1,84,100,6.17,US,1698456722
289,taco pozo,-25.6167,-63.2833,21.83,83,100,1.44,AR,1698456723
290,livny,52.4253,37.6069,3.88,100,100,2.83,RU,1698456723
291,belyy yar,53.6039,91.3903,-6.06,73,0,4.0,RU,1698456725
292,igarka,67.4667,86.5833,-11.87,90,93,4.41,RU,1698456726
293,kuqa,41.7278,82.9364,13.28,35,56,1.35,CN,1698456726
294,tiksi,71.6872,128.8694,-17.44,100,80,2.05,RU,1698456727
295,jumla,29.2747,82.1838,10.52,55,14,1.12,NP,1698456728
296,lalibela,12.0333,39.0333,13.99,86,100,0.64,ET,1698456729
297,hassi messaoud,31.6804,6.0729,18.92,34,0,1.03,DZ,1698456730
298,guiuan,11.0333,125.7247,28.52,72,7,1.91,PH,1698456731
299,jamestown,42.097,-79.2353,19.75,83,100,5.66,US,1698456731
300,parry sound,45.3501,-80.033,17.03,88,100,6.08,CA,1698456732
301,grand falls-windsor,48.9332,-55.6649,4.17,92,100,3.37,CA,1698456733
302,vila velha,-20.3297,-40.2925,23.97,94,75,1.54,BR,1698456613
303,honggang,46.4667,124.8667,7.97,24,100,3.13,CN,1698456735
304,krosno odrzanskie,52.0549,15.0988,9.32,96,100,1.42,PL,1698456736
305,burang,30.25,81.1667,1.94,48,100,0.7,CN,1698456736
306,trincomalee,8.5711,81.2335,26.46,81,46,1.81,LK,1698456737
307,kashgar,39.4547,75.9797,14.56,26,20,3.0,CN,1698456738
308,kokpekty,48.75,82.4,-2.21,51,100,1.37,KZ,1698456739
309,akrehamn,59.2667,5.1833,5.79,70,100,2.06,NO,1698456740
310,saldanha,-33.0117,17.9442,11.03,65,2,10.42,ZA,1698456741
311,semibratovo,57.3046,39.5369,-2.08,95,87,4.08,RU,1698456742
312,les cayes,18.2,-73.75,24.86,82,0,3.42,HT,1698456743
313,carnarvon,-24.8667,113.6333,25.23,43,60,8.7,AU,1698456743
314,rawai,7.7797,98.3253,30.55,73,78,2.01,TH,1698456744
315,juegang,32.3174,121.1855,22.17,46,100,2.54,CN,1698456745
316,tolanaro,-25.0319,46.9987,20.0,91,25,5.04,MG,1698456746
317,thunder bay,48.4001,-89.3168,-0.01,80,0,3.6,CA,1698456747
318,kudahuvadhoo,2.6708,72.8944,27.47,78,75,6.08,MV,1698456748
319,porto belo,-27.1578,-48.5531,19.97,95,100,8.06,BR,1698456749
320,stara syniava,49.6032,27.6191,11.11,79,88,14.69,UA,1698456750
321,gustavia,17.8962,-62.8498,25.79,89,100,5.81,BL,1698456750
322,conduaga,8.862,117.4893,29.77,65,58,0.63,PH,1698456751
323,kone,-21.0595,164.8658,27.88,57,51,4.18,NC,1698456752
324,tandur,17.2333,77.5833,20.7,53,0,2.13,IN,1698456753
325,st anne,49.715,-2.2042,11.25,77,96,14.2,GG,1698456754
326,micheweni,-4.9667,39.8333,25.44,86,100,2.05,TZ,1698456755
327,sinop,41.7711,34.8709,17.07,44,78,3.58,TR,1698456631
328,coquimbo,-29.9533,-71.3436,13.85,82,0,2.06,CL,1698456644
329,znamenskoye,57.1281,73.8282,-5.56,91,100,2.96,RU,1698456578
330,kincardine,56.0667,-3.7167,11.07,93,99,5.42,GB,1698456758
331,adre,13.4667,22.2,24.53,54,91,1.41,TD,1698456759
332,manaure,11.7751,-72.4445,27.65,77,54,4.28,CO,1698456760
333,alofi,-19.0595,-169.9187,25.94,65,15,8.75,NU,1698456760
334,nar'yan-mar,67.6713,53.087,-14.38,96,7,2.24,RU,1698456761
335,waiuku,-37.25,174.75,17.7,48,100,1.47,NZ,1698456762
336,trebes,43.2106,2.4417,11.03,88,0,0.51,FR,1698456684
337,kamina,-8.7386,24.9906,17.74,97,99,1.64,CD,1698456764
338,kendari,-3.945,122.4989,31.36,51,70,2.1,ID,1698456765
339,turkmenbasy,40.0222,52.9552,18.37,82,100,2.37,TM,1698456765
340,waingapu,-9.6567,120.2641,31.02,57,26,4.19,ID,1698456766
341,yulin,22.6333,110.15,24.93,80,57,2.06,CN,1698456767
342,seeb,23.6703,58.1891,26.05,73,0,1.03,OM,1698456768
343,yauya,-8.9833,-77.3,12.46,78,100,1.17,PE,1698456769
344,iron river,46.0927,-88.6423,3.42,72,100,5.97,US,1698456770
345,fada,9.5667,8.3,20.13,91,5,0.92,NG,1698456770
346,narvik,68.4384,17.4272,-0.11,90,44,0.99,NO,1698456251
347,tharangambadi,11.0319,79.8528,27.49,75,55,0.79,IN,1698456772
348,krasnyy yar,46.5331,48.3456,11.96,89,93,4.4,RU,1698456773
349,tocopilla,-22.092,-70.1979,17.32,67,19,0.62,CL,1698456523
350,mumbai,19.0144,72.8479,25.99,61,0,2.57,IN,1698456220
351,vanimo,-2.6741,141.3028,27.32,75,100,0.43,PG,1698456775
352,pisco,-13.7,-76.2167,19.03,82,40,7.72,PE,1698456776
353,ugoofaaru,5.6667,73.0,27.86,77,100,4.5,MV,1698456777
354,pontianak,-0.0333,109.3333,27.99,78,40,2.06,ID,1698456778
355,aykhal,66.0,111.5,-11.96,95,86,6.29,RU,1698456779
356,franklin,39.9667,-83.0166,19.45,91,20,3.6,US,1698456779
357,saint croix,17.7397,-64.7388,26.25,93,100,3.6,VI,1698456780
358,salima,-13.7804,34.4587,25.06,64,5,1.87,MW,1698456781
359,san luis de la loma,17.2706,-100.8939,26.55,87,100,2.61,MX,1698456782
360,fauske,67.2588,15.3918,1.02,96,96,0.91,NO,1698456783
361,venezuela,8.0,-66.0,28.21,70,78,2.99,VE,1698456784
362,kotma,23.2,81.9667,18.44,53,3,1.18,IN,1698456785
363,calama,-22.4667,-68.9333,13.27,19,0,6.69,CL,1698456786
364,jianshui,23.6363,102.8264,20.11,82,89,1.13,CN,1698456786
365,new norfolk,-42.7826,147.0587,17.72,33,100,4.36,AU,1698456787
366,darnah,32.767,22.6367,21.6,80,20,1.39,LY,1698456788
367,kirensk,57.7853,108.1119,-0.58,68,100,4.47,RU,1698456789
368,awjilah,29.1081,21.2869,20.39,63,0,1.53,LY,1698456790
369,sabha,27.0377,14.4283,23.85,22,97,2.62,LY,1698456791
370,east end,34.5507,-92.341,22.94,94,26,1.24,US,1698456791
371,kitimat,54.0524,-128.6534,1.49,72,2,0.63,CA,1698456792
372,ati,13.2154,18.3353,28.66,17,69,2.34,TD,1698456793
373,sun prairie,43.1836,-89.2137,4.94,81,100,5.14,US,1698456794
374,san fernando del valle de catamarca,-28.4696,-65.7852,24.87,54,2,0.89,AR,1698456795
375,prince rupert,54.3161,-130.3201,7.83,65,0,2.57,CA,1698456796
376,clarksville,36.5298,-87.3595,20.14,91,20,2.06,US,1698456797
377,tralee,52.2704,-9.7026,8.86,96,100,2.82,IE,1698456797
378,remire-montjoly,4.9167,-52.2667,26.02,94,20,0.0,GF,1698456798
379,turkestan,43.3333,68.25,13.61,42,21,2.93,KZ,1698456799
380,ta`u,-14.2336,-169.5144,26.21,84,97,9.91,AS,1698456800
381,pandan,14.0453,124.1694,29.62,69,41,4.24,PH,1698456801
382,nuku'alofa,-21.1333,-175.2,26.19,69,20,7.72,TO,1698456802
383,harstad,68.799,16.5293,0.34,88,44,1.34,NO,1698456682
384,mirnyy,62.5353,113.9611,-0.98,63,100,7.15,RU,1698456804
385,mana,5.6592,-53.7767,27.07,84,10,4.94,GF,1698456805
386,la passe,45.5549,-0.8967,13.32,81,86,8.69,FR,1698456806
387,illizi,26.4833,8.4667,24.89,23,99,1.22,DZ,1698456807
388,kununurra,-15.7667,128.7333,33.99,10,63,5.66,AU,1698456808
389,holualoa,19.6228,-155.9522,26.91,80,40,4.63,US,1698456809
390,pushkinskiye gory,57.0209,28.9103,-0.83,97,99,2.0,RU,1698456809
391,lake havasu city,34.4839,-114.3224,27.34,22,0,1.54,US,1698456810
392,ketchikan,55.3422,-131.6461,7.99,65,0,2.57,US,1698456811
393,pacocha,-17.5833,-71.3333,18.63,83,98,1.38,PE,1698456812
394,el porvenir,13.7617,-87.3458,22.63,96,100,1.92,HN,1698456813
395,port douglas,-16.4833,145.4667,26.61,73,100,5.99,AU,1698456814
396,guatire,10.4762,-66.5427,23.39,93,93,0.63,VE,1698456815
397,praia da vitoria,38.7333,-27.0667,18.2,77,20,6.74,PT,1698456816
398,pizarro,4.9533,-77.366,23.63,95,100,2.52,CO,1698456817
399,krasnaya gorbatka,55.8703,41.7641,-1.09,97,100,3.22,RU,1698456818
400,naze,28.3667,129.4833,22.51,54,31,4.64,JP,1698456818
401,ao luek,8.378,98.7212,27.07,77,68,0.5,TH,1698456819
402,lesozavodsk,45.4794,133.4244,6.73,36,0,3.04,RU,1698456820
403,breckenridge,32.7557,-98.9023,19.11,68,100,2.57,US,1698456821
404,cabo san lucas,22.8909,-109.9124,25.84,69,0,3.6,MX,1698456715
405,merritt,50.1123,-120.7942,-1.49,61,8,1.34,CA,1698456823
406,nemuro,43.3236,145.575,11.63,80,100,3.57,JP,1698456824
407,kapuskasing,49.4169,-82.4331,1.05,93,100,5.66,CA,1698456824
408,kampot,10.6167,104.1833,26.03,71,8,1.02,KH,1698456825
409,moissala,8.3404,17.7663,20.68,91,74,1.94,TD,1698456826
410,winnipeg,49.8844,-97.147,-2.01,93,75,6.71,CA,1698456591
411,antipolo,14.5864,121.1753,30.54,72,40,1.03,PH,1698456828
412,susuman,62.7833,148.1667,-13.9,93,98,0.89,RU,1698456829
413,nuuk,64.1835,-51.7216,-2.66,93,75,2.06,GL,1698456830
414,nema,57.5067,50.5011,-5.45,86,100,4.36,RU,1698456831
415,san ignacio de velasco,-16.3667,-60.95,26.54,64,73,3.47,BO,1698456832
416,ravar,31.2656,56.8055,17.39,42,8,1.14,IR,1698456833
417,alice springs,-23.7,133.8833,24.75,8,97,4.12,AU,1698456834
418,kavalerovo,44.2661,135.0572,7.53,40,10,3.13,RU,1698456835
419,mbala,-8.8402,31.3659,19.7,58,100,1.13,ZM,1698456835
420,kangding,30.0513,101.9603,10.27,84,96,0.92,CN,1698456836
421,sombrio,-29.1139,-49.6167,21.09,94,94,5.08,BR,1698456837
422,grand-bassam,5.2118,-3.7388,25.98,89,58,2.13,CI,1698456838
423,veraval,20.9,70.3667,26.43,58,1,2.37,IN,1698456840
424,novyy urengoy,66.0833,76.6333,-10.67,85,58,6.99,RU,1698456601
425,gaspe,48.8334,-64.4819,9.95,100,100,2.06,CA,1698456841
426,dongning,44.0622,131.1207,8.36,25,0,2.29,CN,1698456842
427,mount pleasant,32.7941,-79.8626,22.08,94,0,0.89,US,1698456843
428,chandler,33.3062,-111.8412,28.32,33,0,1.54,US,1698456844
429,egilsstadir,65.2653,-14.3948,0.95,100,75,4.63,IS,1698456845
430,okha,53.5739,142.9478,3.54,57,69,5.53,RU,1698456782
431,kingman,35.1894,-114.053,21.71,34,0,5.66,US,1698456846
432,leticia,-4.2153,-69.9406,25.03,94,40,1.54,CO,1698456847
433,karachi,24.9056,67.0822,27.9,78,75,2.06,PK,1698456051
434,aranda de duero,41.6704,-3.6892,10.63,84,95,6.08,ES,1698456849
435,guarapari,-20.6667,-40.4975,23.07,97,100,2.37,BR,1698456850
436,bikenibeu village,1.3673,173.1241,30.98,74,40,2.57,KI,1698456852
437,usogorsk,63.4106,48.6872,-3.52,83,92,2.04,RU,1698456853
438,mochudi,-24.4167,26.15,24.33,41,67,1.24,BW,1698456854
439,banda aceh,5.5577,95.3222,27.54,73,100,1.52,ID,1698456855
440,kalat,29.0225,66.5916,12.12,55,92,0.62,PK,1698456856
441,kodinsk,58.6881,99.1844,-3.09,59,99,6.98,RU,1698456857
442,swakopmund,-22.6833,14.5333,12.47,91,0,1.11,NA,1698456765
443,viransehir,37.2353,39.7631,18.67,52,8,3.15,TR,1698456858
444,charters towers,-20.1,146.2667,30.93,22,11,4.54,AU,1698456861
445,al mazar al janubi,31.0656,35.6961,19.3,41,100,2.97,JO,1698456862
446,genhe,50.7833,121.5167,5.73,38,3,1.3,CN,1698456863
447,poltava,49.5937,34.5407,14.02,94,100,7.42,UA,1698456843
448,wanning,18.8003,110.3967,27.85,78,11,2.46,CN,1698456864
449,nagram,26.6167,81.1333,17.03,42,7,0.93,IN,1698456865
450,dzyarzhynsk,53.6832,27.138,5.56,97,100,5.85,BY,1698456866
451,qinnan,33.2531,119.9133,19.72,38,100,2.68,CN,1698456868
452,axum,14.1245,38.7244,14.55,85,100,2.07,ET,1698456869
453,obolensk,54.9774,37.2245,0.52,72,100,1.81,RU,1698456869
454,vilcun,-38.65,-72.2333,10.41,96,100,6.5,CL,1698456870
455,queenstown,-31.8976,26.8753,13.09,82,100,2.38,ZA,1698456871
456,conception bay south,47.4999,-52.9981,5.97,86,100,4.63,CA,1698456872
457,mae hong son,19.3003,97.9685,23.08,94,75,0.51,TH,1698456873
458,arraial do cabo,-22.9661,-42.0278,23.0,87,99,8.03,BR,1698456873
459,pampierstad,-27.7832,24.6877,21.13,19,100,4.91,ZA,1698456874
460,vigan,17.5747,120.3869,29.4,67,2,0.2,PH,1698456875
461,mohale's hoek,-30.1514,27.4769,17.88,53,100,2.96,LS,1698456877
462,pangody,65.85,74.4859,-8.26,92,99,8.02,RU,1698456877
463,hadibu,12.65,54.0333,25.99,79,90,3.95,YE,1698456878
464,bayanhongor,46.7167,100.1167,3.06,42,10,1.19,MN,1698456879
465,ponta delgada,37.7333,-25.6667,19.4,72,20,10.29,PT,1698456880
466,lerwick,60.1545,-1.1494,8.0,68,100,4.72,GB,1698456881
467,colonia,50.9333,6.95,10.97,91,100,3.09,DE,1698456876
468,cedeira,43.6797,-8.0209,15.21,86,100,11.84,ES,1698456882
469,gambela,8.25,34.5833,22.03,97,100,1.32,ET,1698456883
470,nordholz,53.7833,8.6,8.23,93,75,2.57,DE,1698456884
471,moyynkum,44.2914,72.9469,6.98,58,75,4.59,KZ,1698456885
472,portage,41.1667,-81.1998,18.52,92,100,2.57,US,1698456886
473,xilin hot,43.9667,116.0333,12.05,25,13,4.79,CN,1698456887
474,kiunga,-6.1219,141.2906,30.22,61,64,1.46,PG,1698456887
475,jonquiere,48.4165,-71.2488,9.66,98,100,2.06,CA,1698456888
476,ubari,26.5921,12.7805,24.0,23,100,2.58,LY,1698456889
477,mermoz boabab,14.7065,-17.4758,27.88,78,0,1.03,SN,1698456890
478,alesund,62.4723,6.1549,2.41,74,20,7.2,NO,1698456891
479,caleta de carquin,-11.0925,-77.6267,18.92,87,81,5.46,PE,1698456892
480,cookstown,54.6431,-6.746,10.99,95,93,4.6,GB,1698456893
481,stenungsund,58.0705,11.8181,2.94,91,87,3.45,SE,1698456894
482,okhotsk,59.3833,143.3,0.54,98,100,5.33,RU,1698456894
483,tillaberi,14.2117,1.4531,28.77,16,99,4.57,NE,1698456895
484,gazojak,41.1875,61.4036,17.86,43,100,4.1,TM,1698456896
485,novodvinsk,64.4165,40.8122,-1.23,83,100,2.95,RU,1698456897
486,morehead city,34.7229,-76.726,21.11,86,0,1.34,US,1698456898
487,kudat,6.8837,116.8477,30.16,74,20,1.54,MY,1698456899
488,codrington,-38.2667,141.9667,24.92,24,37,11.08,AU,1698456899
489,corumba,-19.0092,-57.6533,27.75,58,92,1.8,BR,1698456900
490,mount gambier,-37.8333,140.7667,26.18,19,9,7.83,AU,1698456901
491,leesville,31.1435,-93.261,27.13,74,100,4.63,US,1698456718
492,chake chake,-5.2459,39.7666,24.75,88,100,1.82,TZ,1698456734
493,sulak,43.2734,47.5146,16.74,87,95,1.36,RU,1698456904
494,chelmsford,51.7357,0.4696,11.45,95,95,3.21,GB,1698456905
495,as samawah,31.332,45.2944,23.51,34,16,2.56,IQ,1698456905
496,guledagudda,16.05,75.8,21.55,53,0,2.99,IN,1698456906
497,gizo,-8.103,156.8419,28.0,75,41,2.84,SB,1698456907
498,sechura,-5.5569,-80.8222,20.39,80,100,6.6,PE,1698456908
499,oltinko'l,40.8011,72.1634,15.83,51,100,1.22,UZ,1698456909
500,dunedin,-45.8742,170.5036,13.78,54,28,5.81,NZ,1698456910
501,kindu,-2.95,25.95,20.84,99,100,1.54,CD,1698456578
502,gangtok,27.3333,88.6167,14.69,60,0,0.28,IN,1698456912
503,uryupinsk,50.8047,42.0138,2.56,100,100,2.2,RU,1698456875
504,guelendeng,10.9176,15.5501,24.51,59,75,1.03,TD,1698456913
505,askoy,60.4092,5.226,5.42,75,100,1.54,NO,1698456878
506,koelwar,25.5833,84.8,22.95,60,2,1.1,IN,1698456915
507,colonel hill,22.7667,-74.2167,27.51,58,0,9.84,BS,1698456916
508,hillsborough,37.5741,-122.3794,15.24,71,20,7.2,US,1698456917
509,mili,6.0815,171.735,26.75,82,100,5.16,MH,1698456918
510,merizo village,13.2658,144.6691,31.31,87,37,4.26,GU,1698456919
511,aral,40.5156,81.2636,13.22,24,8,1.63,CN,1698456920
512,palikir - national government center,6.9248,158.1611,26.47,94,100,3.6,FM,1698456921
513,hanting,36.7708,119.2108,21.86,23,0,1.29,CN,1698456922
514,veinticinco de mayo,-35.4323,-60.1727,19.43,83,100,0.45,AR,1698456923
515,bamboo flat,11.7,92.7167,28.4,74,62,1.2,IN,1698456924
516,ilhabela,-23.7781,-45.3581,21.81,97,100,4.35,BR,1698456924
517,bratsk,56.1325,101.6142,-4.73,48,4,7.03,RU,1698456925
518,montmagny,48.9734,2.3469,12.38,87,100,8.23,FR,1698456926
519,ismailia,30.6043,32.2723,22.05,81,21,2.83,EG,1698456927
520,bechar,31.6167,-2.2167,18.18,29,0,1.03,DZ,1698456928
521,nogliki,51.8333,143.1667,2.41,73,7,3.13,RU,1698456929
522,tannum sands,-23.9504,151.3693,25.94,34,2,7.2,AU,1698456930
523,tuy hoa,13.0833,109.3,28.33,77,31,2.09,VN,1698456931
524,weno,7.4515,151.8468,29.97,84,100,6.17,FM,1698456931
525,copala,16.65,-98.9833,26.05,89,100,2.56,MX,1698456932
526,manokwari,-0.8667,134.0833,28.93,68,93,2.09,ID,1698456933
527,piti village,13.4626,144.6933,31.49,79,75,5.14,GU,1698456934
528,puerto ayacucho,5.6639,-67.6236,24.03,86,100,2.11,VE,1698456935
529,khandyga,62.6667,135.6,-8.56,89,96,1.1,RU,1698456936
530,sumbawa besar,-8.5,117.4333,33.59,38,97,3.54,ID,1698456937
531,namsos,64.4662,11.4957,-2.97,86,93,4.12,NO,1698456938
532,buka,40.8108,69.1986,15.2,56,82,0.09,UZ,1698456938
533,dame-marie,18.5667,-74.4167,26.82,75,21,8.33,HT,1698456939
534,jiangyou,31.7667,104.7167,15.41,85,100,1.12,CN,1698456940
535,leh,34.1667,77.5833,1.69,39,0,0.88,IN,1698456941
536,san patricio,28.017,-97.5169,27.97,79,13,4.77,US,1698456942
537,page,36.9147,-111.4558,18.88,38,75,1.34,US,1698456943
538,akureyri,65.6835,-18.0878,-4.04,93,40,1.03,IS,1698456944
539,tahoua,14.8888,5.2692,27.2,18,100,2.47,NE,1698456945
540,guerrero negro,27.9769,-114.0611,19.01,75,4,6.5,MX,1698456945
541,trebic,49.2149,15.8817,9.26,89,75,4.12,CZ,1698456946
542,fort mcmurray,56.7268,-111.381,-3.23,68,100,3.09,CA,1698456948
543,pont rouge,48.8833,-72.0825,9.16,98,100,3.03,CA,1698456949
544,mormugao,15.4,73.8,23.59,73,0,2.06,IN,1698456950
545,kimbe,-5.5502,150.1429,31.22,60,86,0.73,PG,1698456950
546,klaksvik,62.2266,-6.589,7.51,71,94,10.93,FO,1698456951
547,port moresby,-9.4431,147.1797,28.68,74,40,5.14,PG,1698456895
548,panchagarh,26.3313,88.562,22.35,74,0,1.82,BD,1698456953
549,yamada,39.4667,141.95,17.57,63,100,1.74,JP,1698456954
550,atambua,-9.1061,124.8925,30.92,46,48,0.79,ID,1698456955
551,pyt-yakh,60.7499,72.8582,-7.41,95,28,1.93,RU,1698456803
552,alenquer,-1.9417,-54.7383,28.0,48,17,2.17,BR,1698456956
553,newman,37.3138,-121.0208,19.13,45,58,1.63,US,1698456957
554,puerto colombia,10.9878,-74.9547,25.05,89,100,3.6,CO,1698456958
555,muang phon-hong,18.4928,102.4172,25.49,83,100,1.22,LA,1698456959
556,nagqu,31.5,92.0,-3.47,60,100,0.58,CN,1698456960
557,ust'-ordynskiy,52.805,104.7508,0.74,61,100,6.22,RU,1698456961
558,vicente camalote,18.5139,-96.525,22.87,96,39,1.62,MX,1698456961
559,tallulah,32.4085,-91.1868,25.03,73,20,0.0,US,1698456962
560,la arena,-5.3466,-80.7109,21.44,74,100,6.78,PE,1698456963
561,yongfeng,27.4283,112.1834,20.32,68,50,1.63,CN,1698456964
562,kolonia town,6.964,158.206,27.06,94,100,3.6,FM,1698456965
563,zaozersk,69.4005,32.4476,-4.81,93,99,2.73,RU,1698456750
564,putina,-15.4667,-69.4333,10.28,67,100,3.68,PE,1698456966
565,talodi,10.6325,30.3797,24.26,68,100,1.38,SD,1698456967
566,muynoq,43.7683,59.0214,13.75,55,100,0.68,UZ,1698456968
567,talas,38.6908,35.5538,5.37,93,0,0.0,TR,1698456677
568,dwarka,22.2394,68.9678,26.85,69,100,3.51,IN,1698456970
569,ploudalmezeau,48.5333,-4.65,14.14,82,75,6.69,FR,1698456971
570,palmares do sul,-30.2578,-50.5097,19.51,90,100,6.98,BR,1698456972
571,saint-philippe,-21.3585,55.7679,23.77,84,32,1.37,RE,1698456973
572,isiro,2.7739,27.616,18.73,100,100,0.98,CD,1698456959
